{"type": "FeatureCollection", "features": [{"geometry": {"type": "Point", "coordinates": [103.945521390895, 1.34671615696183]}, "type": "Feature", "properties": {"binType": "cashfortrash", "address": "Tampines Town Council, 102 Tampines Street 11", "postcode": "521102", "showMarker": false}}, {"geometry": {"type": "Point", "coordinates": [103.958966327804, 1.35401863808222]}, "type": "Feature", "properties": {"binType": "cashfortrash", "address": "Tampines Town Council, 381 Tampines Street 32", "postcode": "520381", "showMarker": false}}, {"geometry": {"type": "Point", "coordinates": [103.946651483646, 1.35727397931467]}, "type": "Feature", "properties": {"binType": "cashfortrash", "address": "Tampines North Community Club, 2 Tampines Street 41", "postcode": "529204", "showMarker": false}}, {"geometry": {"type": "Point", "coordinates": [103.95014820257, 1.35955257203533]}, "type": "Feature", "properties": {"binType": "cashfortrash", "address": "Tampines North Zone 3 RC Centre, 430 Tampines Street 41", "postcode": "520430", "showMarker": false}}, {"geometry": {"type": "Point", "coordinates": [103.951661282648, 1.35742125115574]}, "type": "Feature", "properties": {"binType": "cashfortrash", "address": "Tampines North Zone 4 RC Centre, 450 Tampines Street 42", "postcode": "520450", "showMarker": false}}, {"geometry": {"type": "Point", "coordinates": [103.954664162623, 1.35958714416739]}, "type": "Feature", "properties": {"binType": "cashfortrash", "address": "Tampines North Zone 5 RC Centre, 465 Tampines Street 44", "postcode": "520465", "showMarker": false}}, {"geometry": {"type": "Point", "coordinates": [103.959716836311, 1.36034647971577]}, "type": "Feature", "properties": {"binType": "cashfortrash", "address": "Tampines North Zone 7 RC Centre, 497G Tampines Street 45", "postcode": "525497", "showMarker": false}}, {"geometry": {"type": "Point", "coordinates": [103.933499182409, 1.35670605464453]}, "type": "Feature", "properties": {"binType": "cashfortrash", "address": "Tampines Courtview RC (U & Me corner), 730 Tampines Street 71", "postcode": "520730", "showMarker": false}}, {"geometry": {"type": "Point", "coordinates": [103.935544407093, 1.35908701599058]}, "type": "Feature", "properties": {"binType": "cashfortrash", "address": "Tampines Starlight RC (Tampines Starlight Caf\u00c3\u00a9 corner), 718 Tampines Street 72", "postcode": "520718", "showMarker": false}}, {"geometry": {"type": "Point", "coordinates": [103.934542445567, 1.34778194406829]}, "type": "Feature", "properties": {"binType": "cashfortrash", "address": "Tampines Town Council, 897 Tampines Street 81", "postcode": "520897", "showMarker": false}}, {"geometry": {"type": "Point", "coordinates": [103.936057421077, 1.35247582432518]}, "type": "Feature", "properties": {"binType": "cashfortrash", "address": "Tampines Town Council, 848 Tampines Street 82", "postcode": "520848", "showMarker": false}}, {"geometry": {"type": "Point", "coordinates": [103.937111718027, 1.35207674532861]}, "type": "Feature", "properties": {"binType": "cashfortrash", "address": "Tampines Arcadia RC, 842G Tampines Street 82, #01-96", "postcode": "527842", "showMarker": false}}, {"geometry": {"type": "Point", "coordinates": [103.80129310904, 1.43998365879759]}, "type": "Feature", "properties": {"binType": "cashfortrash", "address": "678 Woodlands Avenue 6", "postcode": "730678", "showMarker": false}}, {"geometry": {"type": "Point", "coordinates": [103.797116575014, 1.44610808592191]}, "type": "Feature", "properties": {"binType": "cashfortrash", "address": "766 Woodlands Circle", "postcode": "730766", "showMarker": false}}, {"geometry": {"type": "Point", "coordinates": [103.792987554602, 1.43016230429517]}, "type": "Feature", "properties": {"binType": "cashfortrash", "address": "547 Woodlands Avenue 4", "postcode": "730547", "showMarker": false}}, {"geometry": {"type": "Point", "coordinates": [103.751903882887, 1.38115528460433]}, "type": "Feature", "properties": {"binType": "cashfortrash", "address": "Chua Chu Kang Community Club, 35 Teck Whye Ave", "postcode": "688892", "showMarker": false}}, {"geometry": {"type": "Point", "coordinates": [103.764775604559, 1.37885365666646]}, "type": "Feature", "properties": {"binType": "cashfortrash", "address": "Cashew Zone 2 RC, 180 Lompang Road", "postcode": "670180", "showMarker": false}}, {"geometry": {"type": "Point", "coordinates": [103.745726065654, 1.39566918393033]}, "type": "Feature", "properties": {"binType": "cashfortrash", "address": "563 Choa Chu Kang Street 52", "postcode": "680563", "showMarker": false}}, {"geometry": {"type": "Point", "coordinates": [103.746086130045, 1.39793012033913]}, "type": "Feature", "properties": {"binType": "cashfortrash", "address": "627 Choa Chu Kang Street 62", "postcode": "680627", "showMarker": false}}, {"geometry": {"type": "Point", "coordinates": [103.764046028518, 1.38249520080744]}, "type": "Feature", "properties": {"binType": "cashfortrash", "address": "Cashew Zone 4 RC, 543 Jelapang Road", "postcode": "670543", "showMarker": false}}, {"geometry": {"type": "Point", "coordinates": [103.939568397767, 1.34902776981214]}, "type": "Feature", "properties": {"binType": "cashfortrash", "address": "Tampines Town Council, 914 Tampines Street 91", "postcode": "520914", "showMarker": false}}, {"geometry": {"type": "Point", "coordinates": [103.961004151673, 1.35447447326754]}, "type": "Feature", "properties": {"binType": "cashfortrash", "address": "Tampines Town Council, 358 Tampines Street 33", "postcode": "520358", "showMarker": false}}, {"geometry": {"type": "Point", "coordinates": [103.842741250241, 1.27590520940023]}, "type": "Feature", "properties": {"binType": "cashfortrash", "address": "Tanjong Pagar Plaza RC, Level 1 Concourse, 4 Tanjong Pagar Plaza", "postcode": "81004", "showMarker": false}}, {"geometry": {"type": "Point", "coordinates": [103.74611936135, 1.34122973644653]}, "type": "Feature", "properties": {"binType": "cashfortrash", "address": "270 Toh Guan Road", "postcode": "600270", "showMarker": false}}, {"geometry": {"type": "Point", "coordinates": [103.773541595886, 1.33830479023872]}, "type": "Feature", "properties": {"binType": "cashfortrash", "address": "9 Toh Yi Drive", "postcode": "590009", "showMarker": false}}, {"geometry": {"type": "Point", "coordinates": [103.846220908795, 1.2845945666158]}, "type": "Feature", "properties": {"binType": "cashfortrash", "address": "Hong Lim RC (In front of Fook Hai Building), 535 Upper Cross Street", "postcode": "50535", "showMarker": false}}, {"geometry": {"type": "Point", "coordinates": [103.760411567916, 1.31032016918551]}, "type": "Feature", "properties": {"binType": "cashfortrash", "address": "West Coast Heights RC (Lift A), 511 West Coast Drive", "postcode": "120511", "showMarker": false}}, {"geometry": {"type": "Point", "coordinates": [103.75894318153, 1.30821760521792]}, "type": "Feature", "properties": {"binType": "cashfortrash", "address": "West Coast Heights RC (Lift A), 518 West Coast Drive", "postcode": "120518", "showMarker": false}}, {"geometry": {"type": "Point", "coordinates": [103.857337482678, 1.32626357881826]}, "type": "Feature", "properties": {"binType": "cashfortrash", "address": "Whampoa Garden RC, 115 Whampoa Road, #01-115", "postcode": "320115", "showMarker": false}}, {"geometry": {"type": "Point", "coordinates": [103.721626399564, 1.33530679992844]}, "type": "Feature", "properties": {"binType": "cashfortrash", "address": "Hardcourt next to Taman Jurong Community Club, 1 Yung Sheng Road", "postcode": "618495", "showMarker": false}}, {"geometry": {"type": "Point", "coordinates": [103.754994809195, 1.34771540282511]}, "type": "Feature", "properties": {"binType": "cashfortrash", "address": "230 Bukit Batok East Avenue 3", "postcode": "650230", "showMarker": false}}, {"geometry": {"type": "Point", "coordinates": [103.752556041489, 1.36393941193027]}, "type": "Feature", "properties": {"binType": "cashfortrash", "address": "386 Bukit Batok West Avenue 5", "postcode": "650386", "showMarker": false}}, {"geometry": {"type": "Point", "coordinates": [103.756470453915, 1.34092459878412]}, "type": "Feature", "properties": {"binType": "cashfortrash", "address": "531 Bukit Batok Street 23", "postcode": "659547", "showMarker": false}}, {"geometry": {"type": "Point", "coordinates": [103.853823284102, 1.30052736696016]}, "type": "Feature", "properties": {"binType": "cashfortrash", "address": "269A Queen Street", "postcode": "181269", "showMarker": false}}, {"geometry": {"type": "Point", "coordinates": [103.860840760634, 1.30458618255169]}, "type": "Feature", "properties": {"binType": "cashfortrash", "address": "Fitness Corner, 462 Crawford Lane", "postcode": "190462", "showMarker": false}}, {"geometry": {"type": "Point", "coordinates": [103.86370794765, 1.30433165572837]}, "type": "Feature", "properties": {"binType": "cashfortrash", "address": "7 North Bridge Road", "postcode": "190007", "showMarker": false}}, {"geometry": {"type": "Point", "coordinates": [103.855272736636, 1.31372067980769]}, "type": "Feature", "properties": {"binType": "cashfortrash", "address": "681 Race Course Road", "postcode": "210681", "showMarker": false}}, {"geometry": {"type": "Point", "coordinates": [103.86299508905, 1.32372380112386]}, "type": "Feature", "properties": {"binType": "cashfortrash", "address": "St. George East RC, 9 St George Road", "postcode": "320009", "showMarker": false}}, {"geometry": {"type": "Point", "coordinates": [103.860820095124, 1.32211972151225]}, "type": "Feature", "properties": {"binType": "cashfortrash", "address": "St. George West RC (Link Building), 4C St George Link", "postcode": "322004", "showMarker": false}}, {"geometry": {"type": "Point", "coordinates": [103.819033292718, 1.28726388061084]}, "type": "Feature", "properties": {"binType": "cashfortrash", "address": "Redhill Gardens RC (Multi-Purpose Hall), 84A Redhill Lane", "postcode": "151084", "showMarker": false}}, {"geometry": {"type": "Point", "coordinates": [103.943819786211, 1.37234259865858]}, "type": "Feature", "properties": {"binType": "cashfortrash", "address": "Livia Condo (Surface carpark lot), 61 Pasir Ris Grove", "postcode": "518215", "showMarker": false}}, {"geometry": {"type": "Point", "coordinates": [103.852878509655, 1.34913808697851]}, "type": "Feature", "properties": {"binType": "cashfortrash", "address": "181 Bishan Street 13", "postcode": "570181", "showMarker": false}}, {"geometry": {"type": "Point", "coordinates": [103.75069463728, 1.35925940699667]}, "type": "Feature", "properties": {"binType": "cashfortrash", "address": "Hardcourt, 371 Bukit Batok Street 31", "postcode": "650371", "showMarker": false}}, {"geometry": {"type": "Point", "coordinates": [103.854641736146, 1.34566284570763]}, "type": "Feature", "properties": {"binType": "cashfortrash", "address": "152 Bishan Street 11", "postcode": "570152", "showMarker": false}}, {"geometry": {"type": "Point", "coordinates": [103.939046432084, 1.32925881972173]}, "type": "Feature", "properties": {"binType": "cashfortrash", "address": "124 Bedok North Road", "postcode": "460124", "showMarker": false}}, {"geometry": {"type": "Point", "coordinates": [103.914991047315, 1.33182714058043]}, "type": "Feature", "properties": {"binType": "cashfortrash", "address": "616 Bedok Reservoir Road", "postcode": "470616", "showMarker": false}}, {"geometry": {"type": "Point", "coordinates": [103.936343488871, 1.3300101131451]}, "type": "Feature", "properties": {"binType": "cashfortrash", "address": "138 Bedok North\u00c2\u00a0Street 2", "postcode": "460138", "showMarker": false}}, {"geometry": {"type": "Point", "coordinates": [103.941309739057, 1.33288899237155]}, "type": "Feature", "properties": {"binType": "cashfortrash", "address": "93 Bedok North\u00c2\u00a0Avenue 4", "postcode": "460093", "showMarker": false}}, {"geometry": {"type": "Point", "coordinates": [103.934772220197, 1.3252037180586]}, "type": "Feature", "properties": {"binType": "cashfortrash", "address": "221A Bedok Central", "postcode": "461221", "showMarker": false}}, {"geometry": {"type": "Point", "coordinates": [103.936601477558, 1.33329852025185]}, "type": "Feature", "properties": {"binType": "cashfortrash", "address": "104 Bedok North\u00c2\u00a0Avenue 4", "postcode": "460104", "showMarker": false}}, {"geometry": {"type": "Point", "coordinates": [103.939847213794, 1.32190663729753]}, "type": "Feature", "properties": {"binType": "cashfortrash", "address": "37 Bedok South\u00c2\u00a0Avenue 2", "postcode": "460037", "showMarker": false}}, {"geometry": {"type": "Point", "coordinates": [103.944965236831, 1.31963969232349]}, "type": "Feature", "properties": {"binType": "cashfortrash", "address": "167 Bedok South\u00c2\u00a0Avenue 3", "postcode": "460167", "showMarker": false}}, {"geometry": {"type": "Point", "coordinates": [103.935458645766, 1.33145574839289]}, "type": "Feature", "properties": {"binType": "cashfortrash", "address": "111 Bedok North\u00c2\u00a0Road", "postcode": "460111", "showMarker": false}}, {"geometry": {"type": "Point", "coordinates": [103.93622213753, 1.32209390475399]}, "type": "Feature", "properties": {"binType": "cashfortrash", "address": "10C Bedok South\u00c2\u00a0Avenue 2", "postcode": "462010", "showMarker": false}}, {"geometry": {"type": "Point", "coordinates": [103.935990121854, 1.33596106507713]}, "type": "Feature", "properties": {"binType": "cashfortrash", "address": "765 Bedok Reservoir View", "postcode": "470765", "showMarker": false}}, {"geometry": {"type": "Point", "coordinates": [103.915599321604, 1.33396186332918]}, "type": "Feature", "properties": {"binType": "cashfortrash", "address": "627 Bedok Reservoir\u00c2\u00a0Road", "postcode": "470627", "showMarker": false}}, {"geometry": {"type": "Point", "coordinates": [103.942732316586, 1.32041602681399]}, "type": "Feature", "properties": {"binType": "cashfortrash", "address": "71 Bedok South\u00c2\u00a0Road", "postcode": "460071", "showMarker": false}}, {"geometry": {"type": "Point", "coordinates": [103.908404754999, 1.33308725757766]}, "type": "Feature", "properties": {"binType": "cashfortrash", "address": "669 Jalan Damai", "postcode": "410669", "showMarker": false}}, {"geometry": {"type": "Point", "coordinates": [103.913087966587, 1.30473348609735]}, "type": "Feature", "properties": {"binType": "cashfortrash", "address": "44 Marine Crescent", "postcode": "440044", "showMarker": false}}, {"geometry": {"type": "Point", "coordinates": [103.942265302489, 1.32343585568433]}, "type": "Feature", "properties": {"binType": "cashfortrash", "address": "51 New Upper Changi Rd", "postcode": "461051", "showMarker": false}}, {"geometry": {"type": "Point", "coordinates": [103.749956104766, 1.34548007750329]}, "type": "Feature", "properties": {"binType": "cashfortrash", "address": "210 Bukit Batok Street 21", "postcode": "650210", "showMarker": false}}, {"geometry": {"type": "Point", "coordinates": [103.74369811191, 1.34737179500216]}, "type": "Feature", "properties": {"binType": "cashfortrash", "address": "154A Bukit Batok West Avenue 8", "postcode": "651154", "showMarker": false}}, {"geometry": {"type": "Point", "coordinates": [103.825887193704, 1.27507182093804]}, "type": "Feature", "properties": {"binType": "cashfortrash", "address": "Bukit Purmei Zone 'B' RC Centre, 114 Bukit Purmei Road", "postcode": "90114", "showMarker": false}}, {"geometry": {"type": "Point", "coordinates": [103.825328120687, 1.27337414621844]}, "type": "Feature", "properties": {"binType": "cashfortrash", "address": "Bukit Purmei Zone 'A' RC Centre, 108 Bukit Purmei Road", "postcode": "90108", "showMarker": false}}, {"geometry": {"type": "Point", "coordinates": [103.840070260324, 1.27447616472123]}, "type": "Feature", "properties": {"binType": "cashfortrash", "address": "Cantonment Towers RC, 12 Cantonment Close, #01-15", "postcode": "80012", "showMarker": false}}, {"geometry": {"type": "Point", "coordinates": [103.841274609196, 1.27553229767378]}, "type": "Feature", "properties": {"binType": "cashfortrash", "address": "Pinnacle @Duxton RC, Level 3, Void Deck, 1G Cantonment Road", "postcode": "85701", "showMarker": false}}, {"geometry": {"type": "Point", "coordinates": [103.814605967953, 1.29231648650016]}, "type": "Feature", "properties": {"binType": "cashfortrash", "address": "Delta RC, 133 Clarence Lane", "postcode": "140133", "showMarker": false}}, {"geometry": {"type": "Point", "coordinates": [103.886478357946, 1.32817782813187]}, "type": "Feature", "properties": {"binType": "cashfortrash", "address": "37 Circuit Road", "postcode": "370037", "showMarker": false}}, {"geometry": {"type": "Point", "coordinates": [103.88849918179, 1.32409812073821]}, "type": "Feature", "properties": {"binType": "cashfortrash", "address": "56 Pipit Road", "postcode": "370056", "showMarker": false}}, {"geometry": {"type": "Point", "coordinates": [103.886521332263, 1.3233796595071]}, "type": "Feature", "properties": {"binType": "cashfortrash", "address": "90 Pipit Road", "postcode": "370090", "showMarker": false}}, {"geometry": {"type": "Point", "coordinates": [103.883192166815, 1.30787056608137]}, "type": "Feature", "properties": {"binType": "cashfortrash", "address": "1 Pine Close", "postcode": "390001", "showMarker": false}}, {"geometry": {"type": "Point", "coordinates": [103.88288715858, 1.30204488623048]}, "type": "Feature", "properties": {"binType": "cashfortrash", "address": "10 Jalan Batu", "postcode": "431010", "showMarker": false}}, {"geometry": {"type": "Point", "coordinates": [103.884729525756, 1.30813368772619]}, "type": "Feature", "properties": {"binType": "cashfortrash", "address": "43 Jalan Tiga", "postcode": "390043", "showMarker": false}}, {"geometry": {"type": "Point", "coordinates": [103.887347527914, 1.30840478342975]}, "type": "Feature", "properties": {"binType": "cashfortrash", "address": "95A Old Airport Road", "postcode": "390095", "showMarker": false}}, {"geometry": {"type": "Point", "coordinates": [103.901103893855, 1.32031400150173]}, "type": "Feature", "properties": {"binType": "cashfortrash", "address": "32A Eunos Crescent", "postcode": "401032", "showMarker": false}}, {"geometry": {"type": "Point", "coordinates": [103.900492069491, 1.32650666160699]}, "type": "Feature", "properties": {"binType": "cashfortrash", "address": "343 Ubi Avenue 1", "postcode": "400343", "showMarker": false}}, {"geometry": {"type": "Point", "coordinates": [103.861403794825, 1.31817643229057]}, "type": "Feature", "properties": {"binType": "cashfortrash", "address": "Bendemeer RC, 22 Boon Keng Road", "postcode": "330022", "showMarker": false}}, {"geometry": {"type": "Point", "coordinates": [103.882442203758, 1.37448361728121]}, "type": "Feature", "properties": {"binType": "cashfortrash", "address": "662 Hougang Avenue 4", "postcode": "530662", "showMarker": false}}, {"geometry": {"type": "Point", "coordinates": [103.878798905948, 1.37662823435088]}, "type": "Feature", "properties": {"binType": "cashfortrash", "address": "956 Hougang Street 91", "postcode": "530956", "showMarker": false}}, {"geometry": {"type": "Point", "coordinates": [103.891360584234, 1.35493747495273]}, "type": "Feature", "properties": {"binType": "cashfortrash", "address": "101 Hougang Avenue 1", "postcode": "530101", "showMarker": false}}, {"geometry": {"type": "Point", "coordinates": [103.881064214629, 1.37028549116103]}, "type": "Feature", "properties": {"binType": "cashfortrash", "address": "630 Hougang Avenue 8", "postcode": "530630", "showMarker": false}}, {"geometry": {"type": "Point", "coordinates": [103.908344142128, 1.39660485135274]}, "type": "Feature", "properties": {"binType": "cashfortrash", "address": "106A Punggol Field", "postcode": "821106", "showMarker": false}}, {"geometry": {"type": "Point", "coordinates": [103.880165371156, 1.35221024976078]}, "type": "Feature", "properties": {"binType": "cashfortrash", "address": "154 Hougang Street 11, #01-200", "postcode": "530154", "showMarker": false}}, {"geometry": {"type": "Point", "coordinates": [103.886329922235, 1.35085299465104]}, "type": "Feature", "properties": {"binType": "cashfortrash", "address": "132 Lorong Ah Soo, #01-412", "postcode": "530132", "showMarker": false}}, {"geometry": {"type": "Point", "coordinates": [103.809758595955, 1.2953196640272]}, "type": "Feature", "properties": {"binType": "cashfortrash", "address": "Dawson RC, 85 Dawson Road", "postcode": "141085", "showMarker": false}}, {"geometry": {"type": "Point", "coordinates": [103.838682238679, 1.27667251781499]}, "type": "Feature", "properties": {"binType": "cashfortrash", "address": "Everton Park RC, 6 Everton Park, #01-04", "postcode": "80006", "showMarker": false}}, {"geometry": {"type": "Point", "coordinates": [103.853872527153, 1.32857910357467]}, "type": "Feature", "properties": {"binType": "cashfortrash", "address": "Whampoa Rajah Court RC, 105 Jalan Rajah", "postcode": "320105", "showMarker": false}}, {"geometry": {"type": "Point", "coordinates": [103.731579770493, 1.34531252272196]}, "type": "Feature", "properties": {"binType": "cashfortrash", "address": "Yuhua Food Centre, 347 Jurong East Avenue 1", "postcode": "600347", "showMarker": false}}, {"geometry": {"type": "Point", "coordinates": [103.742881146671, 1.3375643988824]}, "type": "Feature", "properties": {"binType": "cashfortrash", "address": "205 Jurong East Street 21", "postcode": "600205", "showMarker": false}}, {"geometry": {"type": "Point", "coordinates": [103.739676496961, 1.34316584356388]}, "type": "Feature", "properties": {"binType": "cashfortrash", "address": "251 Jurong East Street 24", "postcode": "600251", "showMarker": false}}, {"geometry": {"type": "Point", "coordinates": [103.726357763603, 1.34820887909944]}, "type": "Feature", "properties": {"binType": "cashfortrash", "address": "484/486 Jurong West Street 41", "postcode": "640484", "showMarker": false}}, {"geometry": {"type": "Point", "coordinates": [103.704448083084, 1.35266386388383]}, "type": "Feature", "properties": {"binType": "cashfortrash", "address": "274D Jurong West Avenue 3", "postcode": "642276", "showMarker": false}}, {"geometry": {"type": "Point", "coordinates": [103.705666142946, 1.34362220862307]}, "type": "Feature", "properties": {"binType": "cashfortrash", "address": "Pioneer Zone 2, 682B Jurong West Central 1", "postcode": "642682", "showMarker": false}}, {"geometry": {"type": "Point", "coordinates": [103.720022401135, 1.35067572640624]}, "type": "Feature", "properties": {"binType": "cashfortrash", "address": "456 Jurong West Street 51", "postcode": "640456", "showMarker": false}}, {"geometry": {"type": "Point", "coordinates": [103.698796960052, 1.34152011218871]}, "type": "Feature", "properties": {"binType": "cashfortrash", "address": "Pioneer Zone 10, 625 Jurong West Street 61", "postcode": "640625", "showMarker": false}}, {"geometry": {"type": "Point", "coordinates": [103.696648269242, 1.34012982349555]}, "type": "Feature", "properties": {"binType": "cashfortrash", "address": "Pioneer Zone 11, 640 Jurong West Street 61", "postcode": "640640", "showMarker": false}}, {"geometry": {"type": "Point", "coordinates": [103.697034911077, 1.33640206702593]}, "type": "Feature", "properties": {"binType": "cashfortrash", "address": "Pioneer Zone 12, 652 Jurong West Street 61", "postcode": "640652", "showMarker": false}}, {"geometry": {"type": "Point", "coordinates": [103.704016274287, 1.33748082285516]}, "type": "Feature", "properties": {"binType": "cashfortrash", "address": "Pioneer Zone 7, 662C Jurong West Street 64", "postcode": "643662", "showMarker": false}}, {"geometry": {"type": "Point", "coordinates": [103.70075743882, 1.33648967231814]}, "type": "Feature", "properties": {"binType": "cashfortrash", "address": "Pioneer Zone 8, 658B Jurong West Street 65", "postcode": "642658", "showMarker": false}}, {"geometry": {"type": "Point", "coordinates": [103.699191897744, 1.34793710590416]}, "type": "Feature", "properties": {"binType": "cashfortrash", "address": "750 Jurong West Street 73", "postcode": "640750", "showMarker": false}}, {"geometry": {"type": "Point", "coordinates": [103.690874119532, 1.34234942904676]}, "type": "Feature", "properties": {"binType": "cashfortrash", "address": "953 Jurong West Street 91", "postcode": "640953", "showMarker": false}}, {"geometry": {"type": "Point", "coordinates": [103.695528960048, 1.33717401090516]}, "type": "Feature", "properties": {"binType": "cashfortrash", "address": "Pioneer Zone 3, 986B/c Jurong West Street 93", "postcode": "642986", "showMarker": false}}, {"geometry": {"type": "Point", "coordinates": [103.842463409292, 1.28074833972306]}, "type": "Feature", "properties": {"binType": "cashfortrash", "address": "Kreta Ayer RC, 333 Kreta Ayer Road", "postcode": "80333", "showMarker": false}}, {"geometry": {"type": "Point", "coordinates": [103.958210113113, 1.34469944837388]}, "type": "Feature", "properties": {"binType": "cashfortrash", "address": "Changi Simei Zone 3 RC, 155 Simei Road, #01-202", "postcode": "520155", "showMarker": false}}, {"geometry": {"type": "Point", "coordinates": [103.834878791999, 1.27442755265085]}, "type": "Feature", "properties": {"binType": "cashfortrash", "address": "Spottiswoode Park RC Centre, 104 Spottiswoode Park Road", "postcode": "80104", "showMarker": false}}, {"geometry": {"type": "Point", "coordinates": [103.811735641097, 1.29435167683482]}, "type": "Feature", "properties": {"binType": "cashfortrash", "address": "Delta RC, MPH, 62 Strathmore Avenue", "postcode": "141062", "showMarker": false}}, {"geometry": {"type": "Point", "coordinates": [103.952704902103, 1.36300828434478]}, "type": "Feature", "properties": {"binType": "cashfortrash", "address": "Tampines North Zone 6 RC Centre, 494B Tampines Street 41", "postcode": "520494", "showMarker": false}}, {"geometry": {"type": "Point", "coordinates": [103.945701732101, 1.35639770646062]}, "type": "Feature", "properties": {"binType": "cashfortrash", "address": "Tampines East Zone 3 RC (Multi-purpose hall), 504 Tampines Central 1", "postcode": "520504", "showMarker": false}}]}